City_ID,City,Lat,Lng,Max Temp,Humidity,Cloudiness,Wind Speed,Country,Date
0,ankazobe,-18.3167,47.1167,289.66,94,100,1.92,MG,1675638367
1,saint-philippe,-21.3585,55.7679,298.92,86,100,4.84,RE,1675638368
2,bilibino,68.0546,166.4372,237.05,100,100,0.89,RU,1675638368
3,meulaboh,4.1363,96.1285,296.94,88,100,2.59,ID,1675638369
4,brigantine,39.4101,-74.3646,280.45,80,100,4.47,US,1675638123
5,mount gambier,-37.8333,140.7667,290.04,63,36,2.27,AU,1675638371
6,hobart,-42.8794,147.3294,293.18,58,40,6.69,AU,1675638372
7,anadyr,64.75,177.4833,242.59,74,75,6.0,RU,1675638372
8,puerto ayora,-0.7393,-90.3518,303.13,90,35,3.58,EC,1675638121
9,mataura,-46.1927,168.8643,289.16,75,90,5.66,NZ,1675638373
10,osorio,-29.8867,-50.2697,295.47,76,33,1.61,BR,1675638308
11,cape town,-33.9258,18.4232,296.14,74,0,6.69,ZA,1675637776
12,east london,-33.0153,27.9116,296.87,84,39,5.4,ZA,1675638375
13,longyearbyen,78.2186,15.6401,271.06,74,75,8.75,SJ,1675638376
14,hermanus,-34.4187,19.2345,294.15,87,89,5.01,ZA,1675638376
15,ushuaia,-54.8,-68.3,280.94,65,75,14.4,AR,1675638310
16,ostrovnoy,68.0531,39.5131,262.17,93,97,6.64,RU,1675638377
17,ferme-neuve,46.7001,-75.4493,269.67,98,100,0.55,CA,1675638330
18,rikitea,-23.1203,-134.9692,299.32,74,3,6.78,PF,1675638378
19,honiara,-9.4333,159.95,298.17,94,100,3.58,SB,1675638175
20,busselton,-33.65,115.3333,293.22,75,26,4.64,AU,1675638379
21,jamestown,42.097,-79.2353,278.95,60,100,6.17,US,1675638379
22,talnakh,69.4865,88.3972,256.92,97,98,1.34,RU,1675638380
23,brae,60.3964,-1.353,280.85,82,100,10.32,GB,1675638381
24,punta arenas,-53.15,-70.9167,286.21,47,40,9.77,CL,1675638126
25,prince rupert,54.3161,-130.3201,278.2,76,100,10.29,CA,1675638381
26,bluff,-46.6,168.3333,287.88,85,55,11.08,NZ,1675638382
27,sola,-13.8833,167.55,301.02,78,100,8.69,VU,1675638383
28,nikolskoye,59.7035,30.7861,269.09,93,100,3.56,RU,1675638383
29,alofi,-19.0595,-169.9187,297.09,94,90,1.54,NU,1675638384
30,butaritari,3.0707,172.7902,299.85,84,100,8.03,KI,1675638385
31,ballina,-28.8667,153.5667,299.83,75,53,2.69,AU,1675638385
32,tarcal,48.1333,21.35,268.99,70,2,5.92,HU,1675638386
33,qaanaaq,77.484,-69.3632,254.8,55,5,2.97,GL,1675638386
34,bansi,27.1833,82.9333,284.18,77,0,2.65,IN,1675638387
35,huarmey,-10.0681,-78.1522,296.66,76,45,2.97,PE,1675638387
36,carnarvon,-24.8667,113.6333,297.99,73,2,6.8,AU,1675638388
37,sinnamary,5.3833,-52.95,297.63,87,100,5.89,GF,1675638388
38,ponta do sol,32.6667,-17.1,289.5,51,34,2.13,PT,1675638389
39,srednekolymsk,67.45,153.6833,237.57,98,100,2.34,RU,1675638390
40,pevek,69.7008,170.3133,236.79,97,86,1.63,RU,1675638390
41,cap malheureux,-19.9842,57.6142,298.97,81,74,1.79,MU,1675638391
42,vardo,70.3705,31.1107,266.14,93,100,11.83,NO,1675638391
43,champerico,14.3,-91.9167,305.45,63,0,5.29,GT,1675638392
44,cervo,43.6702,-7.4101,285.35,79,45,10.91,ES,1675638393
45,avarua,-21.2078,-159.775,301.18,83,75,5.66,CK,1675638393
46,aksehir,38.3575,31.4164,270.96,96,100,6.18,TR,1675638394
47,hirara,24.8,125.2833,295.07,83,40,6.69,JP,1675638395
48,kapuskasing,49.4169,-82.4331,257.2,72,75,3.6,CA,1675638396
49,khatanga,71.9667,102.5,236.03,99,57,2.89,RU,1675638397
50,atuona,-9.8,-139.0333,299.01,78,44,8.52,PF,1675638397
51,marawi,7.9986,124.2928,293.56,86,85,0.87,PH,1675638398
52,kavaratti,10.5669,72.642,299.79,76,20,3.5,IN,1675638399
53,yerbogachen,61.2767,108.0108,236.6,100,99,1.12,RU,1675638270
54,sajanan,37.0573,9.2426,282.66,86,19,2.3,TN,1675638399
55,north branch,45.5113,-92.9802,272.21,93,21,1.28,US,1675638400
56,vila franca do campo,37.7167,-25.4333,288.38,82,67,3.47,PT,1675638400
57,mana,5.6592,-53.7767,297.34,89,100,5.7,GF,1675638167
58,bredasdorp,-34.5322,20.0403,294.05,85,100,4.07,ZA,1675638401
59,izumo,35.3667,132.7667,272.12,100,40,2.06,JP,1675638227
60,husavik,66.0449,-17.3389,280.78,80,100,14.79,IS,1675638402
61,promyshlennyy,67.5833,63.9167,255.21,98,100,2.62,RU,1675638402
62,lompoc,34.6391,-120.4579,289.65,75,75,9.26,US,1675637823
63,barzas,55.7167,86.3167,248.99,100,78,1.33,RU,1675638403
64,lodja,-3.4833,23.4333,294.19,82,100,0.5,CD,1675638403
65,port elizabeth,-33.918,25.5701,298.2,97,65,5.81,ZA,1675638404
66,hamilton,39.1834,-84.5333,283.63,60,0,5.66,US,1675638405
67,yellowknife,62.456,-114.3525,252.9,77,100,5.14,CA,1675638118
68,punta gorda,26.9298,-82.0454,297.58,81,0,4.02,US,1675638351
69,paamiut,61.994,-49.6678,263.65,79,100,9.32,GL,1675638406
70,castro,-24.7911,-50.0119,291.77,78,56,2.45,BR,1675638121
71,albany,42.6001,-73.9662,278.18,54,95,2.22,US,1675638381
72,garissa,-0.4536,39.6401,297.91,68,9,4.44,KE,1675638407
73,olkhovatka,50.2831,39.2872,265.34,97,100,2.81,RU,1675638407
74,constitucion,-35.3333,-72.4167,290.49,82,17,3.05,CL,1675638408
75,necochea,-38.5473,-58.7368,297.59,48,61,2.8,AR,1675638408
76,chuy,-33.6971,-53.4616,293.03,77,0,3.48,UY,1675638409
77,chajul,15.4853,-91.0342,287.63,68,8,2.5,GT,1675638409
78,cadillac,44.2519,-85.4012,271.92,93,100,3.09,US,1675638121
79,ahipara,-35.1667,173.1667,292.46,94,94,3.4,NZ,1675638176
80,mount isa,-20.7333,139.5,299.02,94,100,4.12,AU,1675638410
81,tasiilaq,65.6145,-37.6368,268.24,96,100,2.03,GL,1675638411
82,hilo,19.7297,-155.09,300.53,84,100,3.09,US,1675638007
83,ilulissat,69.2167,-51.1,256.16,85,100,9.77,GL,1675638412
84,taree,-31.9,152.4667,299.3,57,44,1.33,AU,1675638413
85,kupang,-10.1667,123.5833,299.47,89,75,0.51,ID,1675638413
86,kayerkan,69.3497,87.7602,256.33,97,97,1.67,RU,1675638414
87,alice springs,-23.7,133.8833,292.9,52,0,0.51,AU,1675638414
88,valdosta,30.8327,-83.2785,292.12,64,0,0.0,US,1675638121
89,woodstock,43.1334,-80.7497,276.0,80,98,4.02,CA,1675638409
90,ostrovskoye,57.8057,42.2433,261.09,99,94,0.69,RU,1675638415
91,rudnogorsk,57.2639,103.7519,259.03,97,100,1.78,RU,1675638416
92,porto novo,6.4965,2.6036,300.08,85,100,3.98,BJ,1675638417
93,coquimbo,-29.9533,-71.3436,294.0,73,0,5.14,CL,1675638418
94,sao filipe,14.8961,-24.4956,294.42,63,96,7.7,CV,1675638418
95,fortuna,40.5982,-124.1573,283.14,94,75,3.09,US,1675638419
96,gamba,-2.65,10.0,298.64,82,62,1.07,GA,1675638419
97,upernavik,72.7868,-56.1549,248.1,95,100,2.75,GL,1675638421
98,darab,28.7519,54.5444,282.3,58,5,0.37,IR,1675638421
99,yumen,40.2833,97.2,270.12,38,73,3.02,CN,1675638422
100,cabinda,-5.55,12.2,298.92,85,70,2.22,AO,1675638423
101,vaini,-21.2,-175.2,301.24,74,75,1.03,TO,1675638423
102,cidreira,-30.1811,-50.2056,296.93,76,64,4.39,BR,1675638424
103,boende,-0.2167,20.8667,298.51,53,79,1.2,CD,1675638424
104,chimoio,-19.1164,33.4833,292.07,84,13,0.95,MZ,1675638425
105,hambantota,6.1241,81.1185,297.67,81,99,5.11,LK,1675638405
106,port alfred,-33.5906,26.891,295.47,95,51,4.52,ZA,1675638426
107,la ronge,55.1001,-105.2842,272.33,93,100,2.84,CA,1675638427
108,tupik,54.4253,119.9327,248.32,92,68,0.71,RU,1675638427
109,livada,47.8667,23.1333,267.08,91,5,2.11,RO,1675638428
110,kenora,49.8167,-94.4337,261.36,72,89,2.24,CA,1675638429
111,yanam,16.7333,82.2167,291.12,93,7,0.63,IN,1675638168
112,nyurba,63.2842,118.3319,225.24,100,68,1.76,RU,1675638429
113,luanda,-8.8368,13.2343,300.15,78,75,3.09,AO,1675638430
114,ribeira grande,38.5167,-28.7,289.69,90,100,4.47,PT,1675638431
115,saint-georges,12.0564,-61.7485,298.97,78,20,7.72,GD,1675638431
116,narsaq,60.9167,-46.05,265.27,73,100,7.55,GL,1675638432
117,kaiyuan,23.6977,103.3037,284.63,94,12,3.17,CN,1675638433
118,dikson,73.5069,80.5464,254.05,97,100,0.74,RU,1675638434
119,plettenberg bay,-34.0527,23.3716,294.8,91,100,1.32,ZA,1675638434
120,belaya gora,68.5333,146.4167,231.8,100,97,0.63,RU,1675638435
121,hoi an,15.8794,108.335,296.13,91,67,2.1,VN,1675638435
122,kikwit,-5.041,18.8162,294.31,96,91,0.99,CD,1675638437
123,winslow,35.0242,-110.6974,291.25,14,0,9.26,US,1675638438
124,jalu,29.0331,21.5482,284.2,62,11,5.37,LY,1675638438
125,xocali,39.913,46.7903,275.42,67,100,0.33,AZ,1675638439
126,baruun-urt,46.6806,113.2792,254.7,90,62,2.18,MN,1675638440
127,new norfolk,-42.7826,147.0587,292.99,60,99,1.79,AU,1675638441
128,lebu,-37.6167,-73.65,290.11,87,1,8.66,CL,1675638441
129,salalah,17.0151,54.0924,295.2,73,0,1.54,OM,1675638442
130,severo-kurilsk,50.6789,156.125,269.93,78,98,3.33,RU,1675638442
131,leningradskiy,69.3833,178.4167,243.27,98,100,1.84,RU,1675638443
132,southbridge,42.0751,-72.0334,278.53,63,97,1.34,US,1675638443
133,oktyabrskiy,54.4815,53.471,264.12,97,100,0.92,RU,1675638444
134,tiksi,71.6872,128.8694,240.8,100,100,1.63,RU,1675638445
135,kapaa,22.0752,-159.319,300.33,79,40,6.69,US,1675638445
136,fare,-16.7,-151.0167,300.64,74,71,6.16,PF,1675638446
137,barrow,71.2906,-156.7887,245.16,83,100,0.0,US,1675638447
138,komsomolskiy,40.4272,71.7189,277.55,87,100,2.06,UZ,1675638448
139,bend,44.0582,-121.3153,280.75,56,40,6.69,US,1675637902
140,yulara,-25.2406,130.9889,297.15,17,0,4.81,AU,1675638449
141,cherskiy,68.75,161.3,231.86,100,100,2.06,RU,1675638449
142,zhezkazgan,47.8043,67.7144,269.51,92,99,3.5,KZ,1675638450
143,beringovskiy,63.05,179.3167,245.02,93,98,5.37,RU,1675638450
144,nelson bay,-32.7167,152.15,300.42,69,4,0.89,AU,1675638176
145,hurghada,27.2574,33.8129,288.18,34,48,3.2,EG,1675638451
146,westport,41.1415,-73.3579,279.57,68,100,4.73,US,1675638452
147,kosovska mitrovica,42.8833,20.8667,268.34,80,71,3.37,XK,1675638452
148,potiskum,11.7091,11.0694,296.67,20,84,4.25,NG,1675638453
149,puerto leguizamo,-0.1934,-74.7819,297.25,87,81,1.85,CO,1675638453
150,kodiak,57.79,-152.4072,276.88,100,100,3.6,US,1675638454
151,nsoko,-27.0333,31.95,294.12,94,37,1.8,SZ,1675638455
152,kelowna,49.8831,-119.4857,281.38,79,100,1.79,CA,1675638455
153,wyszkow,52.5928,21.4584,270.34,87,80,1.71,PL,1675638456
154,kruisfontein,-34.0033,24.7314,296.97,87,76,3.54,ZA,1675638456
155,homer,59.6425,-151.5483,276.09,80,100,9.77,US,1675638457
156,saldanha,-33.0117,17.9442,291.34,93,17,7.05,ZA,1675638457
157,coihaique,-45.5752,-72.0662,292.49,39,40,2.57,CL,1675638159
158,galveston,29.3669,-94.9669,296.58,77,0,4.63,US,1675638458
159,torbay,47.6666,-52.7314,269.58,75,75,8.23,CA,1675638459
160,hithadhoo,-0.6,73.0833,300.16,70,86,4.3,MV,1675638459
161,verkhnetulomskiy,68.6073,31.7962,260.22,96,100,1.76,RU,1675638460
162,svetlaya,46.5389,138.3297,260.51,74,1,2.79,RU,1675638460
163,weligama,5.9667,80.4167,297.44,91,99,0.48,LK,1675638461
164,zhengjiatun,43.5064,123.5064,261.95,80,13,0.66,CN,1675638323
165,mier,26.4333,-99.15,299.28,33,0,3.82,MX,1675638462
166,katete,-0.7818,29.7544,291.42,52,70,1.35,UG,1675638462
167,barcelos,41.5388,-8.6151,285.29,67,0,2.97,PT,1675638406
168,carutapera,-1.195,-46.02,297.62,93,100,2.71,BR,1675638463
169,pucallpa,-8.3791,-74.5539,299.17,78,75,2.57,PE,1675638464
170,klaksvik,62.2266,-6.589,282.66,93,100,15.44,FO,1675638464
171,biscarrosse,44.3945,-1.1672,280.12,81,100,4.12,FR,1675638465
172,lasa,46.6166,10.7002,272.05,92,56,2.65,IT,1675638466
173,lavrentiya,65.5833,-171.0,254.18,91,100,4.1,RU,1675638466
174,cockburn town,21.4612,-71.1419,298.41,81,0,10.35,TC,1675638467
175,ileza,61.0533,43.9002,252.61,100,99,0.55,RU,1675638467
176,galle,6.0367,80.217,298.06,88,93,0.86,LK,1675638468
177,umm kaddadah,13.6017,26.6876,292.15,17,54,5.26,SD,1675638468
178,atbasar,51.8,68.3333,262.32,96,100,3.15,KZ,1675638469
179,lata,40.1629,-8.3327,282.08,75,0,2.13,PT,1675638470
180,sur,22.5667,59.5289,294.56,71,26,2.74,OM,1675638470
181,ajdabiya,30.7554,20.2263,285.39,51,97,10.87,LY,1675638471
182,victoria,22.2855,114.1577,292.25,86,95,1.79,HK,1675638471
183,mbini,1.574,9.6134,300.21,82,95,4.62,GQ,1675638472
184,semnan,35.5729,53.3971,275.81,44,12,1.01,IR,1675638473
185,vanimo,-2.6741,141.3028,298.66,89,100,1.29,PG,1675638473
186,arraial do cabo,-22.9661,-42.0278,298.33,89,46,2.37,BR,1675638474
187,comodoro rivadavia,-45.8667,-67.5,290.36,65,16,7.15,AR,1675638474
188,mar del plata,-38.0023,-57.5575,299.17,63,40,6.19,AR,1675638475
189,sobolevo,54.4299,31.8996,267.15,95,100,2.34,RU,1675638475
190,port lincoln,-34.7333,135.8667,291.51,70,8,6.2,AU,1675638476
191,herat,34.5,62.0,277.85,83,0,2.56,AF,1675638477
192,cabo san lucas,22.8909,-109.9124,300.71,46,40,4.18,MX,1675638001
193,vanavara,60.34,102.2797,259.57,97,100,1.58,RU,1675638477
194,sulechow,52.0836,15.6251,269.62,46,95,1.02,PL,1675638478
195,kavieng,-2.5744,150.7967,301.22,74,94,2.51,PG,1675638478
196,vezirkopru,41.1436,35.4547,276.42,89,100,1.72,TR,1675638479
197,zaria,11.1113,7.7227,297.34,17,100,4.49,NG,1675638479
198,tuktoyaktuk,69.4541,-133.0374,234.61,100,60,2.43,CA,1675638480
199,tamandare,-8.7597,-35.1047,299.36,82,17,3.36,BR,1675638480
200,waddan,29.1614,16.139,283.85,72,40,3.81,LY,1675638481
201,tema,5.667,-0.0166,300.99,77,100,5.12,GH,1675638481
202,kaitangata,-46.2817,169.8464,292.01,61,68,7.75,NZ,1675638482
203,yaqui,27.3667,-110.1667,299.46,24,3,6.25,MX,1675638482
204,amga,60.8953,131.9608,230.08,100,100,0.71,RU,1675638483
205,pringsewu,-5.3582,104.9744,295.27,77,100,0.48,ID,1675638484
206,buraydah,26.326,43.975,288.34,40,62,3.3,SA,1675638430
207,tarapur,19.85,72.7,295.01,45,6,2.5,IN,1675638485
208,sitka,57.0531,-135.33,279.09,61,100,7.72,US,1675638485
209,olinda,-8.0089,-34.8553,301.0,74,40,3.6,BR,1675638404
210,pacific grove,36.6177,-121.9166,286.72,76,75,7.2,US,1675638372
211,knysna,-34.0363,23.0471,295.41,91,93,1.4,ZA,1675638486
212,dingle,10.9995,122.6711,296.83,93,46,3.38,PH,1675638487
213,esperance,-33.8667,121.9,294.49,59,71,7.21,AU,1675638488
214,mitchell,43.7094,-98.0298,273.14,79,0,4.47,US,1675638223
215,toamasina,-18.1667,49.3833,296.65,93,100,4.63,MG,1675638488
216,senanga,-16.1167,23.2667,293.06,94,93,2.78,ZM,1675638489
217,saskylakh,71.9167,114.0833,231.55,100,94,1.84,RU,1675638489
218,moose factory,51.2585,-80.6094,254.14,71,40,1.54,CA,1675638490
219,barabai,-2.5833,115.3833,296.31,94,100,0.14,ID,1675638491
220,vallenar,-28.5708,-70.7581,299.32,43,2,2.58,CL,1675638491
221,marsa matruh,31.3525,27.2453,284.38,62,41,15.19,EG,1675638492
222,saint george,37.1041,-113.5841,289.48,47,0,6.69,US,1675637916
223,goias,-15.5807,-49.6362,295.89,85,88,0.74,BR,1675638493
224,frankfort,-27.2667,28.4833,288.03,81,56,2.49,ZA,1675638059
225,margate,51.3813,1.3862,278.54,86,73,1.79,GB,1675638179
226,te anau,-45.4167,167.7167,287.1,90,100,3.02,NZ,1675638416
227,pangnirtung,66.1451,-65.7125,235.81,96,91,1.76,CA,1675638495
228,kudat,6.8837,116.8477,297.96,88,59,4.21,MY,1675638495
229,muswellbrook,-32.2667,150.9,299.44,56,2,1.82,AU,1675638496
230,kalmunai,7.4167,81.8167,297.28,88,100,3.08,LK,1675638497
231,diego de almagro,-26.3667,-70.05,297.47,42,38,5.19,CL,1675638230
232,okotoks,50.7289,-113.9828,279.22,91,76,1.19,CA,1675638218
233,vostok,46.4856,135.8833,251.43,99,98,2.06,RU,1675638498
234,tabou,4.423,-7.3528,299.52,86,96,3.81,CI,1675638498
235,slave lake,55.2834,-114.769,273.14,86,100,1.54,CA,1675638267
236,kuyanovo,55.8014,54.5372,261.83,97,100,1.49,RU,1675638499
237,mul,20.0667,79.6667,290.01,25,2,1.47,IN,1675638500
238,broome,42.2506,-75.833,279.15,55,100,5.14,US,1675638500
239,nishihara,26.1842,127.7558,291.18,100,100,4.12,JP,1675638501
240,byron bay,-28.65,153.6167,299.79,56,75,3.15,AU,1675638200
241,baturaja,-4.1333,104.1667,294.4,84,100,1.15,ID,1675638502
242,chokurdakh,70.6333,147.9167,232.01,100,66,0.51,RU,1675638502
243,bengkulu,-3.8004,102.2655,296.33,87,95,3.45,ID,1675638503
244,mitsamiouli,-11.3847,43.2844,300.49,79,100,4.25,KM,1675638503
245,ixtapa,20.7,-105.2,297.72,73,0,3.6,MX,1675638035
246,puerto ayacucho,5.6639,-67.6236,298.16,79,75,3.08,VE,1675638504
247,mansoa,12.0733,-15.3189,295.24,48,51,2.37,GW,1675638505
248,morristown,36.214,-83.2949,285.54,60,0,5.66,US,1675638505
249,mehamn,71.0357,27.8492,276.12,87,75,10.8,NO,1675638506
250,georgetown,5.4112,100.3354,299.11,99,20,0.51,MY,1675638034
251,kamenka,51.3223,42.7678,259.14,98,85,1.84,RU,1675638507
252,faro,37.0194,-7.9322,287.57,62,0,4.12,PT,1675638508
253,fukue,32.6881,128.8419,284.05,55,100,4.62,JP,1675638508
254,praia da vitoria,38.7333,-27.0667,289.13,88,75,7.41,PT,1675638258
255,jumla,29.2747,82.1838,275.58,57,0,1.82,NP,1675638509
256,chivilcoy,-34.8957,-60.0167,300.46,25,8,1.26,AR,1675638403
257,hofn,64.2539,-15.2082,281.24,95,100,15.68,IS,1675638510
258,vaitape,-16.5167,-151.75,300.66,74,16,6.82,PF,1675638511
259,taldan,53.6667,124.8,245.53,100,97,0.76,RU,1675638511
260,acarau,-2.8856,-40.12,299.09,82,57,5.15,BR,1675638512
261,manono,-7.3,27.4167,292.75,94,99,0.91,CD,1675638513
262,tadine,-21.55,167.8833,301.64,75,28,2.64,NC,1675638513
263,san patricio,28.017,-97.5169,299.2,64,0,5.14,US,1675638513
264,valkla,59.4744,25.3186,273.52,88,100,6.35,EE,1675638514
265,tomigusuku,26.185,127.675,291.45,100,75,4.12,JP,1675638514
266,mormugao,15.4,73.8,296.74,88,44,1.54,IN,1675638515
267,formosa do rio preto,-11.0483,-45.1931,297.28,73,84,0.64,BR,1675638516
268,poum,-20.2333,164.0167,302.01,80,100,8.99,NC,1675638516
269,noumea,-22.2763,166.4572,306.14,99,86,2.93,NC,1675638517
270,haimen,23.1935,116.6142,288.95,94,100,4.05,CN,1675638517
271,souillac,-20.5167,57.5167,298.57,83,100,4.81,MU,1675638518
272,tucuma,-0.1833,-50.05,297.54,93,100,2.5,BR,1675638518
273,udachnyy,66.4167,112.4,238.95,73,98,0.69,RU,1675638519
274,baisha,26.5222,110.9311,282.74,98,85,0.51,CN,1675638519
275,matara,5.9485,80.5353,297.27,92,99,1.2,LK,1675638520
276,namibe,-15.1961,12.1522,294.91,79,46,2.63,AO,1675638520
277,ossora,59.2353,163.0719,249.65,80,8,1.84,RU,1675638521
278,clyde river,70.4692,-68.5914,244.28,63,0,5.66,CA,1675638521
279,rio grande,-32.035,-52.0986,297.21,78,8,3.85,BR,1675638522
280,cayenne,4.9333,-52.3333,295.17,100,0,0.51,GF,1675638522
281,padang,-0.9492,100.3543,296.18,79,99,1.95,ID,1675638523
282,puerto escondido,15.85,-97.0667,301.61,61,20,2.57,MX,1675638188
283,vung tau,10.346,107.0843,297.38,83,13,7.04,VN,1675638318
284,boca do acre,-8.7522,-67.3978,297.4,90,100,1.19,BR,1675638330
285,tura,25.5198,90.2201,286.56,52,2,1.16,IN,1675638524
286,kahului,20.8947,-156.47,300.35,73,40,10.29,US,1675637907
287,tsaratanana,-16.7833,47.65,295.3,93,100,2.21,MG,1675638525
288,sakaiminato,35.55,133.2333,279.01,64,29,3.85,JP,1675638525
289,uran,18.8769,72.9397,296.13,54,27,1.68,IN,1675638526
290,foumban,5.7291,10.9001,292.81,27,32,1.57,CM,1675638527
291,taksimo,56.3444,114.8794,255.21,89,100,2.11,RU,1675638357
292,chaoyang,41.5703,120.4586,267.0,52,62,0.85,CN,1675638527
293,aguimes,27.9054,-15.4461,287.5,63,20,3.6,ES,1675638244
294,diveyevo,55.0433,43.2418,255.98,100,96,1.77,RU,1675638528
295,portland,45.5234,-122.6762,283.49,89,100,6.69,US,1675638490
296,falmouth,50.1544,-5.0711,277.65,93,20,1.03,GB,1675638529
297,san angelo,31.4638,-100.437,299.27,21,0,3.6,US,1675638426
298,qaqortoq,60.7167,-46.0333,263.28,59,99,13.34,GL,1675638530
299,grindavik,63.8424,-22.4338,277.41,70,75,19.55,IS,1675638531
300,karratha,-20.7377,116.8463,304.59,52,4,0.27,AU,1675638531
301,coahuayana,18.7333,-103.6833,302.32,48,0,2.51,MX,1675638532
302,calatayud,41.3535,-1.6432,277.25,74,12,1.07,ES,1675638533
303,iqaluit,63.7506,-68.5145,245.2,68,100,8.94,CA,1675638533
304,bushehr,28.9684,50.8385,289.49,51,78,1.49,IR,1675638534
305,bubaque,11.2833,-15.8333,297.79,61,60,6.61,GW,1675638535
306,tigil,57.8,158.6667,248.42,100,96,0.51,RU,1675638535
307,mayumba,-3.432,10.6554,298.79,86,80,2.26,GA,1675638536
308,omboue,-1.5746,9.2618,298.64,85,75,2.15,GA,1675638536
309,faanui,-16.4833,-151.75,300.65,74,16,6.83,PF,1675638537
310,norman wells,65.282,-126.8329,247.45,99,89,0.71,CA,1675638537
311,codrington,-38.2667,141.9667,289.64,67,64,2.66,AU,1675638537
312,gat,31.61,34.7642,287.26,2,93,6.57,IL,1675638538
313,agadez,19.75,10.25,290.15,11,1,5.36,NE,1675638539
314,manta,-0.95,-80.7333,302.03,70,75,3.6,EC,1675638539
315,katsuura,35.1333,140.3,281.89,76,3,3.58,JP,1675638539
316,vila velha,-20.3297,-40.2925,300.34,84,20,3.6,BR,1675638540
317,bethanien,-26.502,17.1583,298.97,37,100,2.13,NA,1675638541
318,vienne,48.2085,16.3721,271.42,75,0,4.12,AT,1675638494
319,salinas,36.6777,-121.6555,286.75,74,75,7.2,US,1675638542
320,kirakira,-10.4544,161.9205,299.12,92,100,9.72,SB,1675638542
321,banda aceh,5.5577,95.3222,298.33,81,89,1.65,ID,1675638543
322,sabratah,32.7933,12.4885,286.46,66,47,3.63,LY,1675638543
323,helena,46.5927,-112.0361,278.84,70,100,2.06,US,1675637933
324,turka,49.1541,23.0297,265.81,95,100,3.2,UA,1675638544
325,langham,52.3668,-106.9679,271.94,91,57,3.13,CA,1675638545
326,omsukchan,62.5333,155.8,235.56,98,77,2.06,RU,1675638545
327,macouria,4.9167,-52.3667,295.12,100,0,0.51,GF,1675638546
328,pangai,-19.8,-174.35,300.21,78,40,8.23,TO,1675638439
329,martapura,-3.4167,114.85,297.2,94,40,2.57,ID,1675638547
330,port hedland,-20.3167,118.5667,300.18,78,0,2.06,AU,1675638547
331,thompson,55.7435,-97.8558,258.78,96,100,2.27,CA,1675638548
332,isangel,-19.55,169.2667,303.35,65,99,2.47,VU,1675638548
333,olafsvik,64.8945,-23.7142,276.73,80,100,19.4,IS,1675638549
334,burriana,39.889,-0.085,282.43,82,0,1.26,ES,1675638549
335,ugoofaaru,5.6667,73.0,299.78,77,93,1.33,MV,1675638550
336,ust-omchug,61.15,149.6333,236.2,99,81,1.63,RU,1675638551
337,tocopilla,-22.092,-70.1979,296.27,78,4,3.62,CL,1675638551
338,parkes,-33.1333,148.1833,298.87,31,0,0.35,AU,1675638552
339,luwuk,-0.9516,122.7875,298.72,81,100,2.12,ID,1675638553
340,nola,40.922,14.5329,278.37,65,19,3.93,IT,1675638553
341,pinega,64.7001,43.3936,254.61,98,58,2.62,RU,1675638554
342,shelburne,44.0787,-80.2041,274.33,86,100,5.97,CA,1675638555
343,bandarbeyla,9.4942,50.8122,296.81,74,78,6.4,SO,1675638555
344,lancaster,40.2504,-76.2499,278.76,58,0,1.34,US,1675638556
345,tshane,-24.0196,21.8684,297.55,58,71,3.95,BW,1675638556
346,ciudad bolivar,8.1222,-63.5497,302.82,43,91,5.84,VE,1675638557
347,longyan,25.1072,117.0225,288.75,98,98,0.74,CN,1675638363
348,neyvo-rudyanka,57.3444,60.1343,259.05,98,100,0.53,RU,1675638558
349,asau,46.4333,26.4,268.86,93,100,4.11,RO,1675638558
350,vao,-22.6667,167.4833,299.34,86,65,7.14,NC,1675638559
351,airai,-8.9266,125.4092,290.33,87,98,0.91,TL,1675638559
352,shenjiamen,29.9576,122.298,284.23,97,100,4.5,CN,1675638560
353,mahebourg,-20.4081,57.7,298.85,82,89,5.71,MU,1675638561
354,chifeng,42.2683,118.9636,264.06,55,1,0.84,CN,1675638561
355,nouadhibou,20.931,-17.0347,290.09,61,99,9.61,MR,1675638562
356,the valley,18.217,-63.0578,298.76,73,20,6.69,AI,1675638562
357,mandalgovi,45.7625,106.2708,262.34,50,94,3.62,MN,1675638563
358,kenai,60.5544,-151.2583,271.53,77,100,15.95,US,1675638563
359,sakakah,29.9697,40.2064,284.34,35,99,3.41,SA,1675638544
360,quatre cocos,-20.2078,57.7625,298.76,83,62,5.59,MU,1675638564
361,najran,17.4924,44.1277,289.51,35,100,0.64,SA,1675638304
362,guarapari,-20.6667,-40.4975,300.31,90,19,4.46,BR,1675638565
363,camargo,27.6667,-105.1667,298.62,12,0,2.99,MX,1675638565
364,mandan,46.8267,-100.8896,274.16,82,0,4.12,US,1675638566
365,bodmin,50.4715,-4.7243,277.55,87,94,5.14,GB,1675638566
366,tuatapere,-46.1333,167.6833,287.54,90,91,5.0,NZ,1675638567
367,geraldton,-28.7667,114.6,296.38,68,100,4.63,AU,1675638567
368,bethel,41.3712,-73.414,278.36,58,100,0.45,US,1675638569
369,kondinskoye,59.6481,67.41,255.37,98,100,0.24,RU,1675638569
370,hun,29.1268,15.9477,284.02,70,22,4.03,LY,1675638570
371,aklavik,68.2191,-135.0107,236.17,98,50,1.09,CA,1675638570
372,kapiri mposhi,-13.9652,28.6809,289.56,95,100,2.58,ZM,1675638571
373,inirida,3.8653,-67.9239,296.55,93,90,0.87,CO,1675638571
374,labuhan,-6.8844,112.2051,298.63,84,100,1.5,ID,1675638572
375,tavda,58.0425,65.2726,256.84,100,100,1.13,RU,1675638573
376,matagami,49.7502,-77.6328,256.63,95,100,2.37,CA,1675638573
377,ouargaye,11.5033,0.0572,301.0,14,89,3.39,BF,1675638573
378,mattawa,46.7379,-119.9028,281.49,91,100,2.09,US,1675638412
379,pasighat,28.0667,95.3333,287.69,47,0,1.46,IN,1675638574
380,fairbanks,64.8378,-147.7164,262.09,79,0,2.06,US,1675638302
381,beisfjord,68.3751,17.5988,275.18,92,99,2.62,NO,1675638575
382,dunedin,-45.8742,170.5036,294.15,60,23,9.39,NZ,1675638048
383,puerto suarez,-18.95,-57.8,299.44,63,62,0.55,BO,1675638576
384,chopovychi,50.8332,28.9533,268.32,93,100,5.14,UA,1675638577
385,susanville,40.4163,-120.653,278.06,70,40,4.02,US,1675638577
386,maniitsoq,65.4167,-52.9,257.67,90,100,4.22,GL,1675638578
387,bantry,51.6833,-9.45,282.47,97,84,3.1,IE,1675638579
388,tonekabon,36.8163,50.8738,284.87,54,66,1.33,IR,1675638579
389,iberia,29.9502,-91.7507,294.19,49,0,2.57,US,1675638579
390,conde,-7.2597,-34.9075,299.85,78,20,3.09,BR,1675638580
391,mabaruma,8.2,-59.7833,295.03,97,70,1.56,GY,1675638581
392,sokolo,14.7328,-6.1219,298.23,15,14,4.58,ML,1675638581
393,eydhafushi,5.1033,73.0708,299.94,80,100,3.41,MV,1675638582
394,lengshuitan,26.4111,111.5956,282.53,93,99,1.14,CN,1675638582
395,roma,43.2128,-75.4557,279.11,61,100,0.0,US,1675638583
396,biak,-0.9131,122.8766,298.18,78,100,2.61,ID,1675638583
397,mucurapo,10.6667,-61.5333,299.89,69,71,4.7,TT,1675638333
398,bida,9.0833,6.0167,301.32,20,98,1.25,NG,1675638584
399,gorom-gorom,14.4439,-0.2361,299.4,14,100,3.72,BF,1675638585
400,pericos,25.05,-107.7,304.47,25,0,4.56,MX,1675638585
401,caravelas,-17.7125,-39.2481,298.97,82,0,4.86,BR,1675638461
402,bathsheba,13.2167,-59.5167,299.49,73,75,10.8,BB,1675638586
403,bundaberg,-24.85,152.35,302.16,82,65,2.68,AU,1675638587
404,fomboni,-12.28,43.7425,301.17,74,100,1.96,KM,1675638587
405,nantucket,41.2835,-70.0995,280.23,87,0,6.17,US,1675638588
406,lagoa,39.05,-27.9833,288.28,84,99,4.54,PT,1675638588
407,dwarka,22.2394,68.9678,293.92,81,4,4.53,IN,1675638589
408,joshimath,30.5667,79.5667,276.24,43,0,4.0,IN,1675638589
409,pisco,-13.7,-76.2167,298.18,78,0,7.72,PE,1675638381
410,pingliang,35.5392,106.6861,273.32,32,57,1.15,CN,1675638590
411,huejuquilla el alto,22.6,-103.8667,299.5,11,0,1.41,MX,1675638591
412,swan river,52.1058,-101.2676,270.35,91,31,2.77,CA,1675638592
413,sao joao da barra,-21.6403,-41.0511,298.2,94,32,1.17,BR,1675638592
414,malakal,9.5334,31.6605,299.52,19,33,2.77,SS,1675638593
415,chongwe,-15.3292,28.682,290.99,98,100,1.84,ZM,1675638593
416,vidim,56.4088,103.1106,260.15,97,100,2.32,RU,1675638594
417,broken hill,-31.95,141.4333,297.0,32,0,5.67,AU,1675638594
418,urengoy,65.9667,78.3667,246.36,100,76,0.4,RU,1675638595
419,rajmahal,25.05,87.8333,287.38,61,0,2.19,IN,1675638595
420,durazno,-33.4131,-56.5006,299.06,19,0,1.51,UY,1675638596
421,tuchola,53.5879,17.8591,268.16,90,100,2.14,PL,1675638596
422,tarauaca,-8.1614,-70.7656,295.52,98,98,0.77,BR,1675638597
423,bambous virieux,-20.3428,57.7575,298.83,83,77,5.72,MU,1675638597
424,boden,65.8252,21.6886,265.15,86,44,2.41,SE,1675638598
425,sept-iles,50.2001,-66.3821,256.51,87,100,1.34,CA,1675638598
426,paracuru,-3.41,-39.0306,300.43,83,99,4.0,BR,1675638599
427,calabozo,8.9242,-67.4293,305.09,33,91,3.98,VE,1675638599
428,curepipe,-20.3147,57.5203,295.41,86,90,3.84,MU,1675638600
429,walvis bay,-22.9575,14.5053,292.09,84,95,2.27,NA,1675638600
430,ust-ordynskiy,52.805,104.7508,247.01,100,100,1.09,RU,1675638601
431,mareeba,-17.0,145.4333,299.51,90,68,1.8,AU,1675638602
432,sorland,67.667,12.6934,278.07,71,100,11.39,NO,1675638602
433,scottsbluff,41.8666,-103.6672,279.42,55,0,8.75,US,1675638603
434,haines junction,60.7522,-137.5108,264.78,94,100,1.21,CA,1675638603
435,moindou,-21.6924,165.677,304.01,66,100,2.06,NC,1675638604
436,dongsheng,39.8161,109.9776,267.0,41,74,0.98,CN,1675638604
437,hasaki,35.7333,140.8333,274.37,77,1,3.64,JP,1675638605
438,queimados,-22.7161,-43.5553,301.25,95,96,0.6,BR,1675638605
439,linhares,-19.3911,-40.0722,298.1,85,13,2.84,BR,1675638606
440,kyaikkami,16.08,97.5675,298.27,77,56,0.29,MM,1675638606
441,paoua,7.2427,16.4406,296.0,17,77,2.09,CF,1675638607
442,kunyang,27.6658,120.5658,284.53,95,100,1.23,CN,1675638607
443,rybachiy,48.7073,44.7449,267.07,95,99,2.79,RU,1675638608
444,faya,18.3851,42.4509,284.44,67,86,1.57,SA,1675638609
445,harper,4.375,-7.7169,299.81,84,63,4.02,LR,1675638609
446,evensk,61.95,159.2333,246.21,78,27,3.91,RU,1675638610
447,buala,-8.145,159.5921,298.31,92,100,4.15,SB,1675638610
448,gotsu,35.0,132.2167,277.9,65,78,2.47,JP,1675638611
449,muros,42.7762,-9.0603,281.95,76,0,2.83,ES,1675638612
450,villa carlos paz,-31.4241,-64.4978,296.96,52,0,3.0,AR,1675638612
451,pangody,65.85,74.4859,247.44,100,100,2.18,RU,1675638613
452,sambava,-14.2667,50.1667,296.96,92,99,1.86,MG,1675638613
453,shellbrook,53.2168,-106.4011,270.71,88,50,3.61,CA,1675638614
454,nacala,-14.5428,40.6728,297.6,92,100,2.51,MZ,1675638615
455,nicoya,10.1483,-85.452,301.98,50,60,7.44,CR,1675638616
456,ukiah,39.1502,-123.2078,283.36,85,40,5.66,US,1675638617
457,sakti,22.0333,82.9667,287.94,36,0,1.95,IN,1675638617
458,lancut,50.0687,22.2291,268.96,80,100,3.09,PL,1675638618
459,lianran,24.9227,102.485,278.12,64,0,0.86,CN,1675638619
460,hobyo,5.3505,48.5268,297.8,78,32,7.41,SO,1675638619
461,durban,-29.8579,31.0292,297.6,87,1,0.89,ZA,1675638453
462,pangkalanbuun,-2.6833,111.6167,296.14,98,100,0.89,ID,1675638621
463,olhao,37.0286,-7.8411,287.64,62,0,4.12,PT,1675638621
464,mezen,65.8522,44.24,254.06,98,38,2.72,RU,1675638622
465,loubomo,-4.1997,12.6739,295.26,95,81,1.48,CG,1675638623
466,saint-francois,46.4154,3.9054,277.97,81,75,4.63,FR,1675638623
467,nuevitas,21.5453,-77.2644,298.31,76,0,4.62,CU,1675638369
468,shar,49.5886,81.0453,267.38,87,100,5.72,KZ,1675638624
469,bulgan,48.8125,103.5347,253.43,96,72,1.55,MN,1675638625
470,baiyin,36.5583,104.2081,269.61,39,6,1.09,CN,1675638625
471,the pas,53.8251,-101.2541,270.32,96,100,3.8,CA,1675638626
472,atambua,-9.1061,124.8925,297.08,83,93,0.57,ID,1675638626
473,carnaiba,-8.7,-37.6667,300.23,56,86,3.36,BR,1675638627
474,bayir,37.2687,28.2167,277.44,87,100,9.05,TR,1675638627
475,erenhot,43.6475,111.9767,263.34,54,8,1.63,CN,1675638628
476,abu samrah,35.3029,37.1841,280.0,91,100,5.12,SY,1675638629
477,angouleme,45.65,0.15,278.68,71,0,3.09,FR,1675638629
478,male,4.1748,73.5089,300.69,70,100,5.81,MV,1675638630
479,doha,25.2867,51.5333,291.09,82,0,2.06,QA,1675638630
480,mizque,-17.941,-65.3402,287.37,92,100,1.12,BO,1675638631
481,lodwar,3.1191,35.5973,300.46,31,23,0.65,KE,1675638631
482,liverpool,53.4106,-2.9779,274.6,85,0,2.06,GB,1675638464
483,altay,47.8667,88.1167,264.22,67,86,2.66,CN,1675638632
484,gamboma,-1.8764,15.8644,297.74,72,88,1.64,CG,1675638633
485,muroto,33.2833,134.15,282.95,57,100,3.79,JP,1675638634
486,port macquarie,-31.4333,152.9167,300.87,62,83,2.64,AU,1675638634
487,okhotsk,59.3833,143.3,247.14,82,97,4.91,RU,1675638635
488,inhambane,-23.865,35.3833,296.09,89,3,3.15,MZ,1675638635
489,auki,-8.7676,160.7034,297.79,93,100,4.4,SB,1675638636
490,rostovka,55.3842,71.8891,251.17,100,98,2.02,RU,1675638636
491,saint-augustin,51.226,-58.6502,256.91,93,100,0.43,CA,1675638637
492,camacha,33.0833,-16.3333,287.83,67,40,6.69,PT,1675638637
493,lukulu,-14.3707,23.242,291.48,96,97,2.54,ZM,1675638638
494,taguatinga,-12.3857,-46.5711,298.38,69,62,0.96,BR,1675638639
495,boyolangu,-8.1181,111.8935,297.34,82,100,1.95,ID,1675638639
496,cotonou,6.3654,2.4183,300.37,86,100,5.62,BJ,1675638640
497,farmington,36.7281,-108.2187,289.53,17,0,2.57,US,1675638324
498,makakilo city,21.3469,-158.0858,300.33,61,20,9.26,US,1675638641
499,korla,41.7597,86.1469,270.22,71,1,1.21,CN,1675638641
500,port hardy,50.6996,-127.4199,280.18,81,74,4.21,CA,1675638564
501,virginia beach,36.8529,-75.978,285.17,43,100,2.57,US,1675638534
502,hovd,48.0056,91.6419,256.83,77,2,1.37,MN,1675638642
503,pupiales,0.8714,-77.6403,283.98,88,84,2.81,CO,1675638643
504,saint-joseph,-21.3667,55.6167,298.36,84,100,4.6,RE,1675638644
505,kaeo,-35.1,173.7833,295.0,91,85,3.2,NZ,1675638644
506,hargeysa,9.56,44.065,287.3,50,16,4.83,SO,1675638645
507,provideniya,64.3833,-173.3,259.21,66,75,6.0,RU,1675638645
508,zhanaozen,43.3,52.8,272.56,73,98,4.91,KZ,1675638646
509,kushima,31.4583,131.2333,284.1,86,100,2.66,JP,1675638646
510,cabra,37.4725,-4.4421,281.82,55,5,1.59,ES,1675638647
511,valera,9.3178,-70.6036,296.99,76,63,0.89,VE,1675638541
512,denizli,37.8402,29.0698,274.01,94,100,5.98,TR,1675638648
513,pouso alegre,-22.23,-45.9364,294.73,93,94,1.0,BR,1675638522
514,vitim,59.4511,112.5578,242.29,100,99,1.13,RU,1675638648
515,ayagoz,47.9714,80.4392,270.41,95,100,5.3,KZ,1675638649
516,willmar,45.1219,-95.0433,268.25,79,0,0.0,US,1675638649
517,berlevag,70.8578,29.0864,276.15,93,100,5.14,NO,1675638650
518,nova esperanca,4.438,-61.1151,295.8,72,99,1.8,BR,1675638650
519,andenes,69.3143,16.1194,276.14,75,75,8.23,NO,1675638651
520,ongandjera,-17.8833,15.0667,294.85,37,100,4.1,NA,1675638652
521,skjervoy,70.0311,20.9714,276.15,72,97,12.18,NO,1675638652
522,jinchang,38.4953,102.1739,270.3,39,4,0.93,CN,1675638653
523,sao jose da coroa grande,-8.8978,-35.1478,299.42,82,17,3.52,BR,1675638653
524,kulhudhuffushi,6.6221,73.07,299.71,76,31,0.78,MV,1675638654
525,sibolga,1.7427,98.7792,295.81,92,100,0.54,ID,1675638654
526,newcastle,-32.9272,151.7765,300.25,67,40,3.6,AU,1675638655
527,mayor pablo lagerenza,-19.9309,-60.7718,301.55,46,78,2.75,PY,1675638656
528,khovu-aksy,51.1333,93.6,257.37,98,98,0.11,RU,1675638656
529,nemencine,54.85,25.4833,263.9,96,100,1.32,LT,1675638657
530,gambela,8.25,34.5833,300.24,32,21,0.64,ET,1675638658
531,chumikan,54.7183,135.315,248.91,92,55,6.8,RU,1675638658
532,flinders,-34.5833,150.8552,299.47,67,20,3.13,AU,1675638659
533,kinablangan,7.6947,126.5503,298.22,82,82,1.94,PH,1675638659
534,pandan,14.0453,124.1694,298.4,89,33,4.19,PH,1675638660
535,grand gaube,-20.0064,57.6608,298.92,80,69,1.34,MU,1675638660
536,san quintin,30.4833,-115.95,289.96,76,34,11.2,MX,1675638661
537,dolores,-36.3132,-57.6792,295.8,50,26,4.49,AR,1675638662
538,rongcheng,30.634,117.8517,282.47,95,100,0.55,CN,1675638662
539,atikokan,48.7555,-91.6216,260.68,95,100,0.97,CA,1675638663
540,sikasso,10.9167,-7.0,299.61,17,66,2.22,ML,1675638664
541,wanaka,-44.7,169.15,294.32,52,78,4.47,NZ,1675638539
542,ancud,-41.8697,-73.8203,289.71,73,26,3.14,CL,1675638664
543,sharjah,25.3573,55.4033,292.14,82,0,3.09,AE,1675638428
544,bakloh,32.4667,75.9167,283.38,46,85,2.73,IN,1675638665
545,hiroshima,34.3963,132.4594,275.03,74,85,2.47,JP,1675638666
546,tezu,27.9167,96.1667,287.93,37,1,1.77,IN,1675638666
547,salinopolis,-0.6136,-47.3561,298.5,88,100,4.34,BR,1675638667
548,campbellford,44.3084,-77.7995,277.35,75,100,0.89,CA,1675638668
549,coos bay,43.3665,-124.2179,282.67,87,100,6.69,US,1675638551
550,santiago del estero,-27.7951,-64.2615,302.56,38,91,3.1,AR,1675638669
551,kununurra,-15.7667,128.7333,300.14,89,29,0.0,AU,1675638570
552,rustam,27.969,68.8048,286.12,29,0,2.35,PK,1675638669
553,lewistown,40.5992,-77.5714,282.12,48,0,1.54,US,1675638670
554,vilcun,-38.65,-72.2333,293.56,53,0,3.6,CL,1675638671
555,kamphaeng phet,16.25,99.5,297.28,71,63,1.0,TH,1675638671
556,lashio,22.9333,97.75,282.15,57,75,0.7,MM,1675638672
557,becerril,9.7041,-73.2793,303.91,45,88,3.98,CO,1675638673
558,havelock,34.8791,-76.9013,291.14,75,100,3.09,US,1675638311
559,nabire,-3.3667,135.4833,298.06,92,100,0.79,ID,1675638674
560,kaoma,-14.7833,24.8,291.18,98,100,0.03,ZM,1675638674
561,griffith,41.5284,-87.4237,277.31,70,40,4.63,US,1675638477
562,kibala,9.1104,18.3463,299.82,15,96,2.86,TD,1675638675
563,dickinson,29.4608,-95.0513,296.57,72,40,6.17,US,1675638667
564,den helder,52.9599,4.7593,278.7,88,100,2.68,NL,1675638676
565,naze,28.3667,129.4833,290.03,84,100,5.39,JP,1675638677
566,los llanos de aridane,28.6585,-17.9182,287.01,68,40,4.12,ES,1675638677
